{
  "stadiums": {
    "1": {
      "center": [
        127.0718937899423,
        37.51140105144526
      ],
      "zoom": 14.5,
      "spots": [
        {
          "id": "spot-1-1",
          "kind": "stadium",
          "name": "잠실야구장",
          "lng": 127.0718937899423,
          "lat": 37.51140105144526,
          "description": "잠실야구장 (두산·LG 홈). 지하철 2호선 종합운동장역 5번출구 도보 3분, 9호선 종합운동장역."
        },
        {
          "id": "spot-1-2",
          "kind": "parking",
          "name": "종합운동장 공식 주차장",
          "lng": 127.07286485333077,
          "lat": 37.515083855801905,
          "description": "서울종합운동장 공식 주차장. 현재 2주차장만 운영(약 876면). 경기일 소형 6,000원 선불. 평일 요일별 차량번호제(월1·6 화2·7 수3·8 목4·9 금5·0). 주말·공휴일 제한 없음.",
          "verified": false
        },
        {
          "id": "spot-1-3",
          "kind": "parking",
          "name": "잠실한강공원 주차장",
          "lng": 127.0886697,
          "lat": 37.517774,
          "description": "잠실한강공원 주차장 (5개 구역, 총 706면). 도보 10-15분. 1,000원/30분, 1일 최대 10,000원.",
          "verified": true
        },
        {
          "id": "spot-1-4",
          "kind": "parking",
          "name": "롯데월드몰 주차장",
          "lng": 127.1052345,
          "lat": 37.5145555,
          "description": "롯데월드몰·타워 주차장 (올림픽로 300). 도보 5-8분. CGV·아쿠아리움 이용 시 4시간 4,800원.",
          "verified": true
        },
        {
          "id": "spot-1-5",
          "kind": "parking",
          "name": "석촌호수 공영주차장",
          "lng": 127.097712,
          "lat": 37.5088892,
          "description": "석촌호수/송파나루공원 주변 공영주차장 (5곳 분산). 도보 10-15분.",
          "verified": true
        },
        {
          "id": "spot-1-6",
          "kind": "parking",
          "name": "아시아공원 공영주차장",
          "lng": 127.0782222,
          "lat": 37.5101363,
          "description": "아시아공원 공영주차장 (올림픽로 44). 도보 약 10분.",
          "verified": true
        },
        {
          "id": "spot-1-7",
          "kind": "parking",
          "name": "탄천 공영주차장",
          "lng": 127.0681897,
          "lat": 37.5087145,
          "description": "탄천 공영주차장 (올림픽대로·탄천변). 도보 12-15분.",
          "verified": true
        }
      ]
    },
    "2": {
      "center": [
        126.86708415003739,
        37.49801666492519
      ],
      "zoom": 14.5,
      "spots": [
        {
          "id": "spot-2-1",
          "kind": "stadium",
          "name": "고척스카이돔",
          "lng": 126.86708415003739,
          "lat": 37.49801666492519,
          "description": "고척스카이돔 (키움 히어로즈 홈). 지하철 1호선 구일역 2번출구 도보 5분."
        },
        {
          "id": "spot-2-2",
          "kind": "parking",
          "name": "고척스카이돔 공식 주차장",
          "lng": 126.86684810200535,
          "lat": 37.49875188699525,
          "description": "고척스카이돔 지하+지상 (약 1,000면). 경기일 1,500원/30분. 사전예약제.",
          "verified": false
        },
        {
          "id": "spot-2-3",
          "kind": "parking",
          "name": "고척근린공원 공영주차장",
          "lng": 126.8527799,
          "lat": 37.5040806,
          "description": "고척근린공원 공영주차장. 도보 5-10분. 소규모(50-100면).",
          "verified": true
        },
        {
          "id": "spot-2-4",
          "kind": "parking",
          "name": "구로구청 공영주차장",
          "lng": 126.8876188,
          "lat": 37.4951557,
          "description": "구로구청 공영주차장 (구로동). 도보 10-15분.",
          "verified": true
        },
        {
          "id": "spot-2-5",
          "kind": "parking",
          "name": "개봉역 사설주차장",
          "lng": 126.85893796000363,
          "lat": 37.49449097979989,
          "description": "개봉역(1호선) 인근 사설 주차장. 도보 10-15분.",
          "verified": false
        }
      ]
    },
    "3": {
      "center": [
        126.6933,
        37.4368
      ],
      "zoom": 14.5,
      "spots": [
        {
          "id": "spot-3-1",
          "kind": "stadium",
          "name": "SSG 랜더스필드",
          "lng": 126.6933,
          "lat": 37.4368,
          "description": "인천 SSG 랜더스필드 (문학경기장). 지하철 인천2호선 문학경기장역 직결."
        },
        {
          "id": "spot-3-2",
          "kind": "parking",
          "name": "SSG랜더스필드 지하주차장",
          "lng": 126.693,
          "lat": 37.4362,
          "description": "지하 P6 (B1-B4, 약 3,321면). 2,000원/일. KBO 최고 주차장.",
          "verified": false
        },
        {
          "id": "spot-3-3",
          "kind": "parking",
          "name": "SSG랜더스필드 지상주차장",
          "lng": 126.694,
          "lat": 37.4375,
          "description": "지상 P1-P5 (약 681면). 2,000원/일.",
          "verified": false
        },
        {
          "id": "spot-3-4",
          "kind": "parking",
          "name": "문학경기장 공영주차장",
          "lng": 126.6862985,
          "lat": 37.4378589,
          "description": "문학동 노상 공영주차장. 도보 5-10분.",
          "verified": true
        },
        {
          "id": "spot-3-5",
          "kind": "parking",
          "name": "인천문화예술회관 주차장",
          "lng": 126.699732,
          "lat": 37.4445036,
          "description": "인천문화예술회관. 도보 5-10분.",
          "verified": true
        }
      ]
    },
    "4": {
      "center": [
        127.0097,
        37.2998
      ],
      "zoom": 14.5,
      "spots": [
        {
          "id": "spot-4-1",
          "kind": "stadium",
          "name": "KT 위즈파크",
          "lng": 127.0097,
          "lat": 37.2998,
          "description": "수원 KT 위즈파크 (장안구 경수대로 893)."
        },
        {
          "id": "spot-4-2",
          "kind": "parking",
          "name": "KT위즈파크 공식 주차장",
          "lng": 127.00986216194178,
          "lat": 37.29817048763476,
          "description": "공식 주차장. 3,000원. 사전 예약 필수.",
          "verified": false
        },
        {
          "id": "spot-4-3",
          "kind": "parking",
          "name": "장안구청 공영주차장",
          "lng": 127.0095932,
          "lat": 37.3039255,
          "description": "장안구청 (경기장 정문 맞은편). 5,000원. 사전 예약 필수.",
          "verified": true
        },
        {
          "id": "spot-4-4",
          "kind": "parking",
          "name": "홈플러스 북수원점",
          "lng": 127.0087753,
          "lat": 37.302729,
          "description": "홈플러스 북수원점. 도보 5-10분. 구매 시 무료주차.",
          "verified": true
        },
        {
          "id": "spot-4-5",
          "kind": "parking",
          "name": "만석공원 공영주차장",
          "lng": 127.0022592,
          "lat": 37.3024157,
          "description": "만석공원 (송원로 101). 도보 5-10분. 약 200-300면.",
          "verified": true
        },
        {
          "id": "spot-4-6",
          "kind": "parking",
          "name": "이마트 북수원점",
          "lng": 126.991717,
          "lat": 37.2873672,
          "description": "이마트 북수원점. 도보 10-15분.",
          "verified": true
        }
      ]
    },
    "5": {
      "center": [
        127.43154738283175,
        36.315834522208576
      ],
      "zoom": 14.5,
      "spots": [
        {
          "id": "spot-5-1",
          "kind": "stadium",
          "name": "대전 한화생명 볼파크",
          "lng": 127.43154738283175,
          "lat": 36.315834522208576,
          "description": "대전 한화생명 볼파크 (중구 대종로 373). 2025년 3월 개장. 약 20,000석."
        },
        {
          "id": "spot-5-2",
          "kind": "parking",
          "name": "한화생명 볼파크 공식 주차장",
          "lng": 127.42953374782832,
          "lat": 36.31536386732596,
          "description": "공식 주차장 (약 900면). 무료. 선착순.",
          "verified": false
        },
        {
          "id": "spot-5-3",
          "kind": "parking",
          "name": "부사동 공영주차장",
          "lng": 127.4332285,
          "lat": 36.3153184,
          "description": "부사동 공영주차장. 도보 5-10분.",
          "verified": true
        },
        {
          "id": "spot-5-4",
          "kind": "parking",
          "name": "대전역 동광장 공영주차장",
          "lng": 127.4328586,
          "lat": 36.3295791,
          "description": "대전역 동광장 (약 200-300면). 도보 15-20분.",
          "verified": true
        },
        {
          "id": "spot-5-5",
          "kind": "parking",
          "name": "중앙시장 공영주차장",
          "lng": 127.4315599,
          "lat": 36.3299695,
          "description": "중앙시장 공영주차장. 도보 10-15분.",
          "verified": true
        },
        {
          "id": "spot-5-6",
          "kind": "parking",
          "name": "대전 중구청 공영주차장",
          "lng": 127.4205787,
          "lat": 36.3250549,
          "description": "중구청 (중앙로 100). 도보 10-15분.",
          "verified": true
        }
      ]
    },
    "6": {
      "center": [
        128.68138480074794,
        35.84078662093984
      ],
      "zoom": 14.5,
      "spots": [
        {
          "id": "spot-6-1",
          "kind": "stadium",
          "name": "삼성라이온즈파크",
          "lng": 128.68138480074794,
          "lat": 35.84078662093984,
          "description": "대구 삼성라이온즈파크 (수성구 야구전설로 1). 24,000석."
        },
        {
          "id": "spot-6-2",
          "kind": "parking",
          "name": "삼성라이온즈파크 공식 주차장",
          "lng": 128.68021665000515,
          "lat": 35.839346276583626,
          "description": "공식 주차장 (1,116면). 2,000원 현금.",
          "verified": false
        },
        {
          "id": "spot-6-3",
          "kind": "parking",
          "name": "대구스타디움 주차장",
          "lng": 128.6882832,
          "lat": 35.8320247,
          "description": "대구스타디움(월드컵경기장, 2,547-3,550면). 도보 15분.",
          "verified": true
        },
        {
          "id": "spot-6-4",
          "kind": "parking",
          "name": "대공원역 공영주차장",
          "lng": 128.6672734,
          "lat": 35.8459928,
          "description": "대공원역 인근. 지하철 이용 시 편리.",
          "verified": true
        },
        {
          "id": "spot-6-5",
          "kind": "parking",
          "name": "수성알파시티 공영주차장",
          "lng": 128.6942031,
          "lat": 35.8390847,
          "description": "수성알파시티 방면. 도보 10-15분.",
          "verified": true
        }
      ]
    },
    "7": {
      "center": [
        126.88893544780495,
        35.16777700538708
      ],
      "zoom": 14.5,
      "spots": [
        {
          "id": "spot-7-1",
          "kind": "stadium",
          "name": "기아챔피언스필드",
          "lng": 126.88893544780495,
          "lat": 35.16777700538708,
          "description": "광주 기아챔피언스필드 (북구 서림로 10)."
        },
        {
          "id": "spot-7-2",
          "kind": "parking",
          "name": "기아챔피언스필드 공식 주차장",
          "lng": 126.89002550514851,
          "lat": 35.16803160156981,
          "description": "지상A·지하B/D. 경기일 무료.",
          "verified": false
        },
        {
          "id": "spot-7-3",
          "kind": "parking",
          "name": "무등야구장 지하주차장",
          "lng": 126.8877927,
          "lat": 35.1697358,
          "description": "무등야구장 지하 (약 1,000면). 도보 3-4분. 경기일 무료.",
          "verified": true
        },
        {
          "id": "spot-7-4",
          "kind": "parking",
          "name": "임동 공영주차장",
          "lng": 126.8972249,
          "lat": 35.1621737,
          "description": "임동 공영 (약 300면). 도보 5-7분. 무료.",
          "verified": true
        },
        {
          "id": "spot-7-5",
          "kind": "parking",
          "name": "광주 북구청 공영주차장",
          "lng": 126.9138676,
          "lat": 35.1748832,
          "description": "북구청 인근. 유료.",
          "verified": true
        },
        {
          "id": "spot-7-6",
          "kind": "parking",
          "name": "광주역 공영주차장",
          "lng": 126.9106878,
          "lat": 35.1644558,
          "description": "광주역 인근. 도보 15분.",
          "verified": true
        }
      ]
    },
    "8": {
      "center": [
        129.06150808540883,
        35.19396095565759
      ],
      "zoom": 14.5,
      "spots": [
        {
          "id": "spot-8-1",
          "kind": "stadium",
          "name": "사직야구장",
          "lng": 129.06150808540883,
          "lat": 35.19396095565759,
          "description": "부산 사직야구장 (동래구 사직로 45)."
        },
        {
          "id": "spot-8-2",
          "kind": "parking",
          "name": "사직야구장 공식 주차장",
          "lng": 129.06167172429332,
          "lat": 35.19488999844957,
          "description": "부설 주차장. 소형 1일 최대 5,000원.",
          "verified": false
        },
        {
          "id": "spot-8-3",
          "kind": "parking",
          "name": "홈플러스 아시아드점",
          "lng": 129.0628475,
          "lat": 35.1912973,
          "description": "홈플러스 아시아드점 (구장 맞은편). 도보 5분.",
          "verified": true
        },
        {
          "id": "spot-8-4",
          "kind": "parking",
          "name": "부산종합운동장 주차장",
          "lng": 129.0595384,
          "lat": 35.1939742,
          "description": "부산종합운동장(아시아드주경기장). 도보 8-12분.",
          "verified": true
        },
        {
          "id": "spot-8-5",
          "kind": "parking",
          "name": "사직동 제일주차장",
          "lng": 129.0584361,
          "lat": 35.1964928,
          "description": "사직동 제일주차장. 도보 10분.",
          "verified": true
        },
        {
          "id": "spot-8-6",
          "kind": "parking",
          "name": "사직동 거성주차장",
          "lng": 129.064203,
          "lat": 35.1958025,
          "description": "사직동 거성주차장. 도보 10분. 1일 최대 15,000원.",
          "verified": true
        }
      ]
    },
    "9": {
      "center": [
        128.58229588883017,
        35.222439656805705
      ],
      "zoom": 14.5,
      "spots": [
        {
          "id": "spot-9-1",
          "kind": "stadium",
          "name": "창원 NC파크",
          "lng": 128.58229588883017,
          "lat": 35.222439656805705,
          "description": "창원 NC파크 (마산회원구 삼호로 63). 2019년 개장."
        },
        {
          "id": "spot-9-2",
          "kind": "parking",
          "name": "NC파크 철골주차장",
          "lng": 128.5818131801321,
          "lat": 35.221891684408774,
          "description": "철골주차장 (694면). 경기 전후 무료. 동문 진입. 출차 정체.",
          "verified": false
        },
        {
          "id": "spot-9-3",
          "kind": "parking",
          "name": "NC파크 노상주차장",
          "lng": 128.58089164534442,
          "lat": 35.22282886859712,
          "description": "노상주차장 (약 518면). 경기 전후 무료.",
          "verified": false
        },
        {
          "id": "spot-9-4",
          "kind": "parking",
          "name": "양덕 공영주차장",
          "lng": 128.5829787,
          "lat": 35.2245111,
          "description": "양덕공영주차장. 도보 8-12분. 경기 전후 무료.",
          "verified": true
        },
        {
          "id": "spot-9-5",
          "kind": "parking",
          "name": "롯데마트 양덕점",
          "lng": 128.5850732,
          "lat": 35.2241214,
          "description": "롯데마트 양덕점. 도보 10-15분. 일요일 휴무.",
          "verified": true
        },
        {
          "id": "spot-9-6",
          "kind": "parking",
          "name": "봉암공단 주차장",
          "lng": 128.5954842,
          "lat": 35.2117882,
          "description": "봉암공단 방면. 도보 10-15분.",
          "verified": true
        }
      ]
    }
  }
}